{"type":"FeatureCollection","features":[{"type":"Feature","properties":{"id":657,"name":"Rio Vista"},"geometry":{"type":"Point","coordinates":[-121.688333,38.151667]}},{"type":"Feature","properties":{"id":649,"name":"Sacramento River"},"geometry":{"type":"Point","coordinates":[-121.8,38.06]}},{"type":"Feature","properties":{"id":2,"name":"Chain Island"},"geometry":{"type":"Point","coordinates":[-121.851667,38.063333]}},{"type":"Feature","properties":{"id":3,"name":"Pittsburg"},"geometry":{"type":"Point","coordinates":[-121.88,38.051667]}},{"type":"Feature","properties":{"id":4,"name":"Simmons Point"},"geometry":{"type":"Point","coordinates":[-121.935,38.048333]}},{"type":"Feature","properties":{"id":5,"name":"Middle Ground"},"geometry":{"type":"Point","coordinates":[-121.98,38.06]}},{"type":"Feature","properties":{"id":6,"name":"Roe Island"},"geometry":{"type":"Point","coordinates":[-122.035,38.065]}},{"type":"Feature","properties":{"id":7,"name":"Avon Pier"},"geometry":{"type":"Point","coordinates":[-122.096667,38.048333]}},{"type":"Feature","properties":{"id":8,"name":"Martinez"},"geometry":{"type":"Point","coordinates":[-122.151667,38.03]}},{"type":"Feature","properties":{"id":9,"name":"Benicia"},"geometry":{"type":"Point","coordinates":[-122.185,38.056667]}},{"type":"Feature","properties":{"id":10,"name":"Crockett"},"geometry":{"type":"Point","coordinates":[-122.208333,38.06]}},{"type":"Feature","properties":{"id":11,"name":"Mare Island"},"geometry":{"type":"Point","coordinates":[-122.266667,38.06]}},{"type":"Feature","properties":{"id":12,"name":"Pinole Shoal"},"geometry":{"type":"Point","coordinates":[-122.311667,38.051667]}},{"type":"Feature","properties":{"id":13,"name":"North of Pinole Point"},"geometry":{"type":"Point","coordinates":[-122.37,38.028333]}},{"type":"Feature","properties":{"id":14,"name":"Echo Buoy"},"geometry":{"type":"Point","coordinates":[-122.405,38.006667]}},{"type":"Feature","properties":{"id":15,"name":"Point San Pablo"},"geometry":{"type":"Point","coordinates":[-122.436667,37.973333]}},{"type":"Feature","properties":{"id":16,"name":"Charlie Buoy"},"geometry":{"type":"Point","coordinates":[-122.446667,37.916667]}},{"type":"Feature","properties":{"id":17,"name":"Raccoon Strait"},"geometry":{"type":"Point","coordinates":[-122.421667,37.878333]}},{"type":"Feature","properties":{"id":18,"name":"Point Blunt"},"geometry":{"type":"Point","coordinates":[-122.421667,37.846667]}},{"type":"Feature","properties":{"id":20,"name":"Blossom Rock"},"geometry":{"type":"Point","coordinates":[-122.393333,37.82]}},{"type":"Feature","properties":{"id":21,"name":"Bay Bridge"},"geometry":{"type":"Point","coordinates":[-122.358333,37.788333]}},{"type":"Feature","properties":{"id":22,"name":"Potrero Point"},"geometry":{"type":"Point","coordinates":[-122.358333,37.765]}},{"type":"Feature","properties":{"id":23,"name":"Hunters Point"},"geometry":{"type":"Point","coordinates":[-122.336667,37.728333]}},{"type":"Feature","properties":{"id":24,"name":"Candlestick Point"},"geometry":{"type":"Point","coordinates":[-122.338333,37.698333]}},{"type":"Feature","properties":{"id":25,"name":"Oyster Point"},"geometry":{"type":"Point","coordinates":[-122.325,37.67]}},{"type":"Feature","properties":{"id":26,"name":"San Bruno Shoal"},"geometry":{"type":"Point","coordinates":[-122.313333,37.636667]}},{"type":"Feature","properties":{"id":27,"name":"San Francisco Airport"},"geometry":{"type":"Point","coordinates":[-122.291667,37.618333]}},{"type":"Feature","properties":{"id":28,"name":"North of San Mateo Bridge"},"geometry":{"type":"Point","coordinates":[-122.27,37.601667]}},{"type":"Feature","properties":{"id":29,"name":"South of San Mateo Bridge"},"geometry":{"type":"Point","coordinates":[-122.245,37.58]}},{"type":"Feature","properties":{"id":30,"name":"Redwood Creek"},"geometry":{"type":"Point","coordinates":[-122.19,37.555]}},{"type":"Feature","properties":{"id":31,"name":"Coyote Hills"},"geometry":{"type":"Point","coordinates":[-122.158333,37.528333]}},{"type":"Feature","properties":{"id":32,"name":"Ravenswood Point"},"geometry":{"type":"Point","coordinates":[-122.133333,37.518333]}},{"type":"Feature","properties":{"id":33,"name":"Dumbarton Bridge"},"geometry":{"type":"Point","coordinates":[-122.121667,37.508333]}},{"type":"Feature","properties":{"id":34,"name":"Newark Slough"},"geometry":{"type":"Point","coordinates":[-122.098333,37.495]}},{"type":"Feature","properties":{"id":35,"name":"Mowry Slough"},"geometry":{"type":"Point","coordinates":[-122.078333,37.48]}},{"type":"Feature","properties":{"id":36,"name":"Calaveras Point"},"geometry":{"type":"Point","coordinates":[-122.066667,37.471667]}}]}